{
  "2020": [
    {
      "location": {
        "address": "Wollbach",
        "name": "Kandertalhalle"
      },
      "starttime": "2020-01-06T19:00:00Z",
      "title": "Neujahrsempfang"
    },
    {
      "location": {
        "address": "Wollbach",
        "name": "Kandertalhalle"
      },
      "starttime": "2020-01-17",
      "endtime": "2020-01-19",
      "title": "Probewochenende"
    },
    {
      "location": {
        "address": "Wollbach",
        "name": "Kandertalhalle"
      },
      "starttime": "2020-01-31",
      "endtime": "2020-02-01",
      "title": "Jahreskonzert"
    },
    {
      "location": {
        "address": "Wollbach",
        "name": "Kandertalhalle"
      },
      "starttime": "2020-02-13T19:00:00Z",
      "title": "Generalversammlungen"
    },
    {
      "location": {
        "address": "Wollbach",
        "name": "Buchhole beim Rebhüsli / Baselblick"
      },
      "description": "Bei Einbruch der Dunkelheit wird wieder das große Feuer entzündet. Für euer Wohl ist mit Grillwürsten, Glühwein, Punsch, sonstigen Getränken, sowie Kaffee und Kuchen wieder bestens gesorgt.<br/>Ebenfalls ist für Holz an den Feuerstellen gesorgt und die Scheibenböcke sind gestellt.",
      "starttime": "2020-03-07",
      "title": "Fastnachtsfeuer"
    },
    {
      "location": {
        "address": "Wollbach",
        "name": "Kandertalhalle"
      },
      "starttime": "2020-05-10",
      "title": "Muttertagskonzert des Jugendorchesters"
    },
    {
      "location": {
        "address": "Wollbach"
      },
      "starttime": "2020-05-16",
      "title": "Marschmusik gemeinsam mit der MG Bannwil"
    },
    {
      "location": {
        "address": "Wollbach",
        "name": "Kandertalhalle"
      },
      "starttime": "2020-05-29",
      "title": "Jugendvorspiel"
    },
    {
      "location": {
        "address": "Wollbach",
        "name": "Forsthof"
      },
      "starttime": "2020-06-12T20:00:00Z",
      "endtime": "2020-06-13",
      "title": "Forsthof Open-Air"
    },
    {
      "location": {
        "address": "Schwörstadt"
      },
      "starttime": "2020-07-06",
      "title": "Auftritt am Rheinfest"
    },
    {
      "location": {
        "address": "Wollbach",
        "name": "Kandertalhalle"
      },
      "starttime": "2020-07-18",
      "title": "Instrumentenvorstellung"
    },
    {
      "location": {
        "address": "Oberrotweil"
      },
      "starttime": "2020-09-12",
      "title": "Auftritt am Winzerfest der Winzerkapelle"
    },
    {
      "location": {
        "address": "Wollbach"
      },
      "starttime": "2020-10-10",
      "title": "Sauserbummel"
    },
    {
      "location": {
        "address": "Wollbach"
      },
      "starttime": "2020-10-11",
      "title": "Herbstfest"
    }
  ]
}
